[
  {
    "city": "Cotonou", 
    "lat": "6.3667", 
    "lng": "2.4333", 
    "country": "Benin", 
    "iso2": "BJ", 
    "admin_name": "Littoral", 
    "capital": "primary", 
    "population": "679012", 
    "population_proper": "679012"
  }, 
  {
    "city": "Abomey-Calavi", 
    "lat": "6.4486", 
    "lng": "2.3556", 
    "country": "Benin", 
    "iso2": "BJ", 
    "admin_name": "Atlantique", 
    "capital": "", 
    "population": "655965", 
    "population_proper": "655965"
  }, 
  {
    "city": "Godomè", 
    "lat": "6.3667", 
    "lng": "2.3500", 
    "country": "Benin", 
    "iso2": "BJ", 
    "admin_name": "Atlantique", 
    "capital": "", 
    "population": "253262", 
    "population_proper": "253262"
  }, 
  {
    "city": "Banikoara", 
    "lat": "11.3000", 
    "lng": "2.4333", 
    "country": "Benin", 
    "iso2": "BJ", 
    "admin_name": "Alibori", 
    "capital": "", 
    "population": "248621", 
    "population_proper": "248621"
  }, 
  {
    "city": "Djougou", 
    "lat": "9.7000", 
    "lng": "1.6667", 
    "country": "Benin", 
    "iso2": "BJ", 
    "admin_name": "Donga", 
    "capital": "admin", 
    "population": "237040", 
    "population_proper": "237040"
  }, 
  {
    "city": "Tchaourou", 
    "lat": "8.8833", 
    "lng": "2.6000", 
    "country": "Benin", 
    "iso2": "BJ", 
    "admin_name": "Borgou", 
    "capital": "", 
    "population": "221108", 
    "population_proper": "221108"
  }, 
  {
    "city": "Parakou", 
    "lat": "9.3500", 
    "lng": "2.6167", 
    "country": "Benin", 
    "iso2": "BJ", 
    "admin_name": "Borgou", 
    "capital": "admin", 
    "population": "206667", 
    "population_proper": "206667"
  }, 
  {
    "city": "Kandi", 
    "lat": "11.1286", 
    "lng": "2.9369", 
    "country": "Benin", 
    "iso2": "BJ", 
    "admin_name": "Alibori", 
    "capital": "admin", 
    "population": "177683", 
    "population_proper": "177683"
  }, 
  {
    "city": "Aplahoué", 
    "lat": "6.9333", 
    "lng": "1.6833", 
    "country": "Benin", 
    "iso2": "BJ", 
    "admin_name": "Couffo", 
    "capital": "", 
    "population": "170069", 
    "population_proper": "170069"
  }, 
  {
    "city": "Kalalé", 
    "lat": "10.2953", 
    "lng": "3.3786", 
    "country": "Benin", 
    "iso2": "BJ", 
    "admin_name": "Borgou", 
    "capital": "", 
    "population": "168882", 
    "population_proper": "168882"
  }, 
  {
    "city": "Malanville", 
    "lat": "11.8667", 
    "lng": "3.3833", 
    "country": "Benin", 
    "iso2": "BJ", 
    "admin_name": "Atacora", 
    "capital": "", 
    "population": "168006", 
    "population_proper": "168006"
  }, 
  {
    "city": "Kétou", 
    "lat": "7.3581", 
    "lng": "2.6075", 
    "country": "Benin", 
    "iso2": "BJ", 
    "admin_name": "Plateau", 
    "capital": "", 
    "population": "156497", 
    "population_proper": "156497"
  }, 
  {
    "city": "Bohicon", 
    "lat": "7.2000", 
    "lng": "2.0667", 
    "country": "Benin", 
    "iso2": "BJ", 
    "admin_name": "Zou", 
    "capital": "", 
    "population": "149271", 
    "population_proper": "149271"
  }, 
  {
    "city": "Djakotomé", 
    "lat": "6.9000", 
    "lng": "1.7167", 
    "country": "Benin", 
    "iso2": "BJ", 
    "admin_name": "Couffo", 
    "capital": "", 
    "population": "134704", 
    "population_proper": "134704"
  }, 
  {
    "city": "Porto-Novo", 
    "lat": "6.4972", 
    "lng": "2.6050", 
    "country": "Benin", 
    "iso2": "BJ", 
    "admin_name": "Ouémé", 
    "capital": "primary", 
    "population": "133168", 
    "population_proper": "133168"
  }, 
  {
    "city": "Zagnanado", 
    "lat": "7.2667", 
    "lng": "2.3500", 
    "country": "Benin", 
    "iso2": "BJ", 
    "admin_name": "Zou", 
    "capital": "", 
    "population": "132401", 
    "population_proper": "132401"
  }, 
  {
    "city": "Bassila", 
    "lat": "9.0167", 
    "lng": "1.6667", 
    "country": "Benin", 
    "iso2": "BJ", 
    "admin_name": "Donga", 
    "capital": "", 
    "population": "130770", 
    "population_proper": "130770"
  }, 
  {
    "city": "Avrankou", 
    "lat": "6.5500", 
    "lng": "2.6667", 
    "country": "Benin", 
    "iso2": "BJ", 
    "admin_name": "Ouémé", 
    "capital": "", 
    "population": "128050", 
    "population_proper": "128050"
  }, 
  {
    "city": "Allada", 
    "lat": "6.6500", 
    "lng": "2.1500", 
    "country": "Benin", 
    "iso2": "BJ", 
    "admin_name": "Atlantique", 
    "capital": "", 
    "population": "127512", 
    "population_proper": "127512"
  }, 
  {
    "city": "Missérété", 
    "lat": "6.5625", 
    "lng": "2.5853", 
    "country": "Benin", 
    "iso2": "BJ", 
    "admin_name": "Ouémé", 
    "capital": "", 
    "population": "127249", 
    "population_proper": "127249"
  }, 
  {
    "city": "Glazoué", 
    "lat": "7.9736", 
    "lng": "2.2400", 
    "country": "Benin", 
    "iso2": "BJ", 
    "admin_name": "Collines", 
    "capital": "", 
    "population": "124431", 
    "population_proper": "124431"
  }, 
  {
    "city": "Pobé", 
    "lat": "6.9667", 
    "lng": "2.6833", 
    "country": "Benin", 
    "iso2": "BJ", 
    "admin_name": "Plateau", 
    "capital": "", 
    "population": "123740", 
    "population_proper": "123740"
  }, 
  {
    "city": "Djidja", 
    "lat": "7.3333", 
    "lng": "1.9333", 
    "country": "Benin", 
    "iso2": "BJ", 
    "admin_name": "Zou", 
    "capital": "", 
    "population": "123542", 
    "population_proper": "123542"
  }, 
  {
    "city": "Lalo", 
    "lat": "6.9167", 
    "lng": "1.8833", 
    "country": "Benin", 
    "iso2": "BJ", 
    "admin_name": "Couffo", 
    "capital": "", 
    "population": "119926", 
    "population_proper": "119926"
  }, 
  {
    "city": "Gogounou", 
    "lat": "10.8386", 
    "lng": "2.8361", 
    "country": "Benin", 
    "iso2": "BJ", 
    "admin_name": "Alibori", 
    "capital": "", 
    "population": "117793", 
    "population_proper": "117793"
  }, 
  {
    "city": "Adjaouèrè", 
    "lat": "7.0000", 
    "lng": "2.6167", 
    "country": "Benin", 
    "iso2": "BJ", 
    "admin_name": "Plateau", 
    "capital": "", 
    "population": "115953", 
    "population_proper": "115953"
  }, 
  {
    "city": "Sakété", 
    "lat": "6.7364", 
    "lng": "2.6581", 
    "country": "Benin", 
    "iso2": "BJ", 
    "admin_name": "Plateau", 
    "capital": "admin", 
    "population": "114207", 
    "population_proper": "114207"
  }, 
  {
    "city": "Matéri", 
    "lat": "10.6978", 
    "lng": "1.0633", 
    "country": "Benin", 
    "iso2": "BJ", 
    "admin_name": "Atacora", 
    "capital": "", 
    "population": "113958", 
    "population_proper": "113958"
  }, 
  {
    "city": "Ifanhim", 
    "lat": "6.6667", 
    "lng": "2.7167", 
    "country": "Benin", 
    "iso2": "BJ", 
    "admin_name": "Plateau", 
    "capital": "", 
    "population": "113749", 
    "population_proper": "113749"
  }, 
  {
    "city": "Ndali", 
    "lat": "9.8608", 
    "lng": "2.7181", 
    "country": "Benin", 
    "iso2": "BJ", 
    "admin_name": "Borgou", 
    "capital": "", 
    "population": "113604", 
    "population_proper": "113604"
  }, 
  {
    "city": "Dassa-Zoumé", 
    "lat": "7.7500", 
    "lng": "2.1833", 
    "country": "Benin", 
    "iso2": "BJ", 
    "admin_name": "Collines", 
    "capital": "", 
    "population": "112118", 
    "population_proper": "112118"
  }, 
  {
    "city": "Kouandé", 
    "lat": "10.3317", 
    "lng": "1.6914", 
    "country": "Benin", 
    "iso2": "BJ", 
    "admin_name": "Atacora", 
    "capital": "", 
    "population": "112014", 
    "population_proper": "112014"
  }, 
  {
    "city": "Banté", 
    "lat": "8.4167", 
    "lng": "1.8833", 
    "country": "Benin", 
    "iso2": "BJ", 
    "admin_name": "Collines", 
    "capital": "", 
    "population": "106945", 
    "population_proper": "106945"
  }, 
  {
    "city": "Lokossa", 
    "lat": "6.6333", 
    "lng": "1.7167", 
    "country": "Benin", 
    "iso2": "BJ", 
    "admin_name": "Mono", 
    "capital": "admin", 
    "population": "106081", 
    "population_proper": "106081"
  }, 
  {
    "city": "Natitingou", 
    "lat": "10.3000", 
    "lng": "1.3667", 
    "country": "Benin", 
    "iso2": "BJ", 
    "admin_name": "Atacora", 
    "capital": "admin", 
    "population": "104010", 
    "population_proper": "104010"
  }, 
  {
    "city": "Tota", 
    "lat": "6.8000", 
    "lng": "1.7833", 
    "country": "Benin", 
    "iso2": "BJ", 
    "admin_name": "Couffo", 
    "capital": "", 
    "population": "101870", 
    "population_proper": "101870"
  }, 
  {
    "city": "Adjarra", 
    "lat": "6.5333", 
    "lng": "2.6667", 
    "country": "Benin", 
    "iso2": "BJ", 
    "admin_name": "Ouémé", 
    "capital": "", 
    "population": "97424", 
    "population_proper": "97424"
  }, 
  {
    "city": "Ouidah", 
    "lat": "6.3667", 
    "lng": "2.0833", 
    "country": "Benin", 
    "iso2": "BJ", 
    "admin_name": "Atlantique", 
    "capital": "admin", 
    "population": "91688", 
    "population_proper": "91688"
  }, 
  {
    "city": "Sinendé", 
    "lat": "10.3447", 
    "lng": "2.3792", 
    "country": "Benin", 
    "iso2": "BJ", 
    "admin_name": "Borgou", 
    "capital": "", 
    "population": "91672", 
    "population_proper": "91672"
  }, 
  {
    "city": "Abomey", 
    "lat": "7.1856", 
    "lng": "1.9881", 
    "country": "Benin", 
    "iso2": "BJ", 
    "admin_name": "Zou", 
    "capital": "admin", 
    "population": "90195", 
    "population_proper": "90195"
  }, 
  {
    "city": "Ségbana", 
    "lat": "10.9278", 
    "lng": "3.6944", 
    "country": "Benin", 
    "iso2": "BJ", 
    "admin_name": "Alibori", 
    "capital": "", 
    "population": "89268", 
    "population_proper": "89268"
  }, 
  {
    "city": "Toviklin", 
    "lat": "6.8333", 
    "lng": "1.8167", 
    "country": "Benin", 
    "iso2": "BJ", 
    "admin_name": "Couffo", 
    "capital": "", 
    "population": "88611", 
    "population_proper": "88611"
  }, 
  {
    "city": "Boukoumbé", 
    "lat": "10.1833", 
    "lng": "1.1000", 
    "country": "Benin", 
    "iso2": "BJ", 
    "admin_name": "Atacora", 
    "capital": "", 
    "population": "83147", 
    "population_proper": "83147"
  }, 
  {
    "city": "Pèrèrè", 
    "lat": "9.7994", 
    "lng": "2.9928", 
    "country": "Benin", 
    "iso2": "BJ", 
    "admin_name": "Borgou", 
    "capital": "", 
    "population": "78988", 
    "population_proper": "78988"
  }, 
  {
    "city": "Péhonko", 
    "lat": "10.2283", 
    "lng": "2.0019", 
    "country": "Benin", 
    "iso2": "BJ", 
    "admin_name": "Atacora", 
    "capital": "", 
    "population": "78217", 
    "population_proper": "78217"
  }, 
  {
    "city": "So-Awa", 
    "lat": "6.4667", 
    "lng": "2.4167", 
    "country": "Benin", 
    "iso2": "BJ", 
    "admin_name": "Atlantique", 
    "capital": "", 
    "population": "76315", 
    "population_proper": "76315"
  }, 
  {
    "city": "Toffo", 
    "lat": "6.8500", 
    "lng": "2.0833", 
    "country": "Benin", 
    "iso2": "BJ", 
    "admin_name": "Atlantique", 
    "capital": "", 
    "population": "74717", 
    "population_proper": "74717"
  }, 
  {
    "city": "Tanguiéta", 
    "lat": "10.6167", 
    "lng": "1.2667", 
    "country": "Benin", 
    "iso2": "BJ", 
    "admin_name": "Atacora", 
    "capital": "", 
    "population": "74675", 
    "population_proper": "74675"
  }, 
  {
    "city": "Péda-Houéyogbé", 
    "lat": "6.4500", 
    "lng": "1.9333", 
    "country": "Benin", 
    "iso2": "BJ", 
    "admin_name": "Mono", 
    "capital": "", 
    "population": "74492", 
    "population_proper": "74492"
  }, 
  {
    "city": "Ouaké", 
    "lat": "9.6617", 
    "lng": "1.3847", 
    "country": "Benin", 
    "iso2": "BJ", 
    "admin_name": "Donga", 
    "capital": "", 
    "population": "74289", 
    "population_proper": "74289"
  }, 
  {
    "city": "Zogbodomé", 
    "lat": "7.0833", 
    "lng": "2.1000", 
    "country": "Benin", 
    "iso2": "BJ", 
    "admin_name": "Zou", 
    "capital": "", 
    "population": "72338", 
    "population_proper": "72338"
  }, 
  {
    "city": "Kopargo", 
    "lat": "9.8375", 
    "lng": "1.5481", 
    "country": "Benin", 
    "iso2": "BJ", 
    "admin_name": "Donga", 
    "capital": "", 
    "population": "70938", 
    "population_proper": "70938"
  }, 
  {
    "city": "Bopa", 
    "lat": "6.5833", 
    "lng": "1.9833", 
    "country": "Benin", 
    "iso2": "BJ", 
    "admin_name": "Mono", 
    "capital": "", 
    "population": "70268", 
    "population_proper": "70268"
  }, 
  {
    "city": "Nikki", 
    "lat": "9.9333", 
    "lng": "3.2083", 
    "country": "Benin", 
    "iso2": "BJ", 
    "admin_name": "Borgou", 
    "capital": "", 
    "population": "69970", 
    "population_proper": "69970"
  }, 
  {
    "city": "Karimama", 
    "lat": "12.0667", 
    "lng": "3.1833", 
    "country": "Benin", 
    "iso2": "BJ", 
    "admin_name": "Alibori", 
    "capital": "", 
    "population": "66675", 
    "population_proper": "66675"
  }, 
  {
    "city": "Dangbo", 
    "lat": "6.5000", 
    "lng": "2.6833", 
    "country": "Benin", 
    "iso2": "BJ", 
    "admin_name": "Ouémé", 
    "capital": "", 
    "population": "66055", 
    "population_proper": "66055"
  }, 
  {
    "city": "Adjohon", 
    "lat": "6.7000", 
    "lng": "2.4667", 
    "country": "Benin", 
    "iso2": "BJ", 
    "admin_name": "Ouémé", 
    "capital": "", 
    "population": "60955", 
    "population_proper": "60955"
  }, 
  {
    "city": "Ouinhri", 
    "lat": "7.0000", 
    "lng": "2.4500", 
    "country": "Benin", 
    "iso2": "BJ", 
    "admin_name": "Zou", 
    "capital": "", 
    "population": "59381", 
    "population_proper": "59381"
  }, 
  {
    "city": "Grand-Popo", 
    "lat": "6.2833", 
    "lng": "1.8333", 
    "country": "Benin", 
    "iso2": "BJ", 
    "admin_name": "Mono", 
    "capital": "", 
    "population": "57636", 
    "population_proper": "57636"
  }, 
  {
    "city": "Athiémé", 
    "lat": "6.5833", 
    "lng": "1.6667", 
    "country": "Benin", 
    "iso2": "BJ", 
    "admin_name": "Mono", 
    "capital": "", 
    "population": "56483", 
    "population_proper": "56483"
  }, 
  {
    "city": "Agbangnizoun", 
    "lat": "7.0667", 
    "lng": "1.9667", 
    "country": "Benin", 
    "iso2": "BJ", 
    "admin_name": "Zou", 
    "capital": "", 
    "population": "55001", 
    "population_proper": "55001"
  }, 
  {
    "city": "Tori-Bossito", 
    "lat": "6.5031", 
    "lng": "2.1450", 
    "country": "Benin", 
    "iso2": "BJ", 
    "admin_name": "Atlantique", 
    "capital": "", 
    "population": "44569", 
    "population_proper": "44569"
  }, 
  {
    "city": "Cové", 
    "lat": "7.2333", 
    "lng": "2.3000", 
    "country": "Benin", 
    "iso2": "BJ", 
    "admin_name": "Zou", 
    "capital": "", 
    "population": "43554", 
    "population_proper": "43554"
  }, 
  {
    "city": "Toukountouna", 
    "lat": "10.4986", 
    "lng": "1.3756", 
    "country": "Benin", 
    "iso2": "BJ", 
    "admin_name": "Atacora", 
    "capital": "", 
    "population": "39779", 
    "population_proper": "39779"
  }, 
  {
    "city": "Kérou", 
    "lat": "10.8250", 
    "lng": "2.1094", 
    "country": "Benin", 
    "iso2": "BJ", 
    "admin_name": "Atacora", 
    "capital": "", 
    "population": "37419", 
    "population_proper": "37419"
  }, 
  {
    "city": "Savalou", 
    "lat": "7.9333", 
    "lng": "1.9667", 
    "country": "Benin", 
    "iso2": "BJ", 
    "admin_name": "Collines", 
    "capital": "admin", 
    "population": "35433", 
    "population_proper": "35433"
  }, 
  {
    "city": "Ekpé", 
    "lat": "6.4000", 
    "lng": "2.5333", 
    "country": "Benin", 
    "iso2": "BJ", 
    "admin_name": "Ouémé", 
    "capital": "", 
    "population": "34917", 
    "population_proper": "34917"
  }, 
  {
    "city": "Comé", 
    "lat": "6.4000", 
    "lng": "1.8833", 
    "country": "Benin", 
    "iso2": "BJ", 
    "admin_name": "Mono", 
    "capital": "", 
    "population": "33507", 
    "population_proper": "33507"
  }, 
  {
    "city": "Savé", 
    "lat": "8.0333", 
    "lng": "2.4833", 
    "country": "Benin", 
    "iso2": "BJ", 
    "admin_name": "Collines", 
    "capital": "", 
    "population": "31444", 
    "population_proper": "31444"
  }, 
  {
    "city": "Bembèrèkè", 
    "lat": "10.2250", 
    "lng": "2.6681", 
    "country": "Benin", 
    "iso2": "BJ", 
    "admin_name": "Borgou", 
    "capital": "", 
    "population": "31101", 
    "population_proper": "31101"
  }, 
  {
    "city": "Agblangandan", 
    "lat": "6.3667", 
    "lng": "2.5167", 
    "country": "Benin", 
    "iso2": "BJ", 
    "admin_name": "Ouémé", 
    "capital": "", 
    "population": "30716", 
    "population_proper": "30716"
  }, 
  {
    "city": "Founougo", 
    "lat": "11.4808", 
    "lng": "2.5322", 
    "country": "Benin", 
    "iso2": "BJ", 
    "admin_name": "Alibori", 
    "capital": "", 
    "population": "30527", 
    "population_proper": "30527"
  }, 
  {
    "city": "Bonou", 
    "lat": "6.9000", 
    "lng": "2.4500", 
    "country": "Benin", 
    "iso2": "BJ", 
    "admin_name": "Ouémé", 
    "capital": "", 
    "population": "29656", 
    "population_proper": "29656"
  }, 
  {
    "city": "Golo-Djigbé", 
    "lat": "6.5403", 
    "lng": "2.3253", 
    "country": "Benin", 
    "iso2": "BJ", 
    "admin_name": "Atlantique", 
    "capital": "", 
    "population": "28103", 
    "population_proper": "28103"
  }, 
  {
    "city": "Bouka", 
    "lat": "10.2167", 
    "lng": "3.1333", 
    "country": "Benin", 
    "iso2": "BJ", 
    "admin_name": "Borgou", 
    "capital": "", 
    "population": "27906", 
    "population_proper": "27906"
  }, 
  {
    "city": "Paouignan", 
    "lat": "7.6937", 
    "lng": "2.2673", 
    "country": "Benin", 
    "iso2": "BJ", 
    "admin_name": "Collines", 
    "capital": "", 
    "population": "27351", 
    "population_proper": "27351"
  }, 
  {
    "city": "Idigny", 
    "lat": "7.4833", 
    "lng": "2.7000", 
    "country": "Benin", 
    "iso2": "BJ", 
    "admin_name": "Plateau", 
    "capital": "", 
    "population": "26882", 
    "population_proper": "26882"
  }, 
  {
    "city": "Guéné", 
    "lat": "11.7306", 
    "lng": "3.2242", 
    "country": "Benin", 
    "iso2": "BJ", 
    "admin_name": "Atacora", 
    "capital": "", 
    "population": "25206", 
    "population_proper": "25206"
  }, 
  {
    "city": "Goumori", 
    "lat": "11.1833", 
    "lng": "2.2833", 
    "country": "Benin", 
    "iso2": "BJ", 
    "admin_name": "Alibori", 
    "capital": "", 
    "population": "23286", 
    "population_proper": "23286"
  }, 
  {
    "city": "Azové", 
    "lat": "6.9500", 
    "lng": "1.7000", 
    "country": "Benin", 
    "iso2": "BJ", 
    "admin_name": "Couffo", 
    "capital": "", 
    "population": "22853", 
    "population_proper": "22853"
  }, 
  {
    "city": "Doutou", 
    "lat": "6.5500", 
    "lng": "1.8833", 
    "country": "Benin", 
    "iso2": "BJ", 
    "admin_name": "Mono", 
    "capital": "", 
    "population": "22099", 
    "population_proper": "22099"
  }, 
  {
    "city": "Sori", 
    "lat": "10.7281", 
    "lng": "2.7825", 
    "country": "Benin", 
    "iso2": "BJ", 
    "admin_name": "Alibori", 
    "capital": "", 
    "population": "21735", 
    "population_proper": "21735"
  }, 
  {
    "city": "Bagou", 
    "lat": "10.8147", 
    "lng": "2.7164", 
    "country": "Benin", 
    "iso2": "BJ", 
    "admin_name": "Alibori", 
    "capital": "", 
    "population": "20631", 
    "population_proper": "20631"
  }, 
  {
    "city": "Vakon", 
    "lat": "6.5167", 
    "lng": "2.5667", 
    "country": "Benin", 
    "iso2": "BJ", 
    "admin_name": "Ouémé", 
    "capital": "", 
    "population": "20541", 
    "population_proper": "20541"
  }, 
  {
    "city": "Kissa", 
    "lat": "7.0333", 
    "lng": "1.7833", 
    "country": "Benin", 
    "iso2": "BJ", 
    "admin_name": "Couffo", 
    "capital": "", 
    "population": "20016", 
    "population_proper": "20016"
  }, 
  {
    "city": "Issaba", 
    "lat": "7.0833", 
    "lng": "2.6167", 
    "country": "Benin", 
    "iso2": "BJ", 
    "admin_name": "Plateau", 
    "capital": "", 
    "population": "19732", 
    "population_proper": "19732"
  }, 
  {
    "city": "Atchoupa", 
    "lat": "6.5333", 
    "lng": "2.6333", 
    "country": "Benin", 
    "iso2": "BJ", 
    "admin_name": "Ouémé", 
    "capital": "", 
    "population": "19565", 
    "population_proper": "19565"
  }, 
  {
    "city": "Bouanri", 
    "lat": "10.2000", 
    "lng": "2.8667", 
    "country": "Benin", 
    "iso2": "BJ", 
    "admin_name": "Borgou", 
    "capital": "", 
    "population": "19281", 
    "population_proper": "19281"
  }, 
  {
    "city": "Togba", 
    "lat": "7.1000", 
    "lng": "1.6667", 
    "country": "Benin", 
    "iso2": "BJ", 
    "admin_name": "Couffo", 
    "capital": "", 
    "population": "18674", 
    "population_proper": "18674"
  }, 
  {
    "city": "Zinvié", 
    "lat": "6.6167", 
    "lng": "2.3500", 
    "country": "Benin", 
    "iso2": "BJ", 
    "admin_name": "Atlantique", 
    "capital": "", 
    "population": "18157", 
    "population_proper": "18157"
  }, 
  {
    "city": "Biro", 
    "lat": "9.9000", 
    "lng": "2.9333", 
    "country": "Benin", 
    "iso2": "BJ", 
    "admin_name": "Borgou", 
    "capital": "", 
    "population": "18003", 
    "population_proper": "18003"
  }, 
  {
    "city": "Tohoué", 
    "lat": "6.3967", 
    "lng": "2.5853", 
    "country": "Benin", 
    "iso2": "BJ", 
    "admin_name": "Ouémé", 
    "capital": "", 
    "population": "17652", 
    "population_proper": "17652"
  }, 
  {
    "city": "Lobogo", 
    "lat": "6.6333", 
    "lng": "1.9000", 
    "country": "Benin", 
    "iso2": "BJ", 
    "admin_name": "Mono", 
    "capital": "", 
    "population": "17622", 
    "population_proper": "17622"
  }, 
  {
    "city": "Kolokondé", 
    "lat": "9.9000", 
    "lng": "1.7667", 
    "country": "Benin", 
    "iso2": "BJ", 
    "admin_name": "Donga", 
    "capital": "", 
    "population": "17419", 
    "population_proper": "17419"
  }, 
  {
    "city": "Akassato", 
    "lat": "6.5000", 
    "lng": "2.3667", 
    "country": "Benin", 
    "iso2": "BJ", 
    "admin_name": "Atlantique", 
    "capital": "", 
    "population": "17197", 
    "population_proper": "17197"
  }, 
  {
    "city": "Tobré", 
    "lat": "10.2000", 
    "lng": "2.1333", 
    "country": "Benin", 
    "iso2": "BJ", 
    "admin_name": "Atacora", 
    "capital": "", 
    "population": "16912", 
    "population_proper": "16912"
  }, 
  {
    "city": "Massé", 
    "lat": "7.1578", 
    "lng": "2.5436", 
    "country": "Benin", 
    "iso2": "BJ", 
    "admin_name": "Plateau", 
    "capital": "", 
    "population": "16902", 
    "population_proper": "16902"
  }, 
  {
    "city": "Aklanpa", 
    "lat": "8.1684", 
    "lng": "2.2320", 
    "country": "Benin", 
    "iso2": "BJ", 
    "admin_name": "Collines", 
    "capital": "", 
    "population": "16895", 
    "population_proper": "16895"
  }, 
  {
    "city": "Azaourissè", 
    "lat": "6.6944", 
    "lng": "2.5075", 
    "country": "Benin", 
    "iso2": "BJ", 
    "admin_name": "Ouémé", 
    "capital": "", 
    "population": "16883", 
    "population_proper": "16883"
  }, 
  {
    "city": "Tantéga", 
    "lat": "10.8500", 
    "lng": "1.0333", 
    "country": "Benin", 
    "iso2": "BJ", 
    "admin_name": "Atacora", 
    "capital": "", 
    "population": "16625", 
    "population_proper": "16625"
  }, 
  {
    "city": "Tiahounkossi", 
    "lat": "10.8167", 
    "lng": "1.0667", 
    "country": "Benin", 
    "iso2": "BJ", 
    "admin_name": "Atacora", 
    "capital": "", 
    "population": "16625", 
    "population_proper": "16625"
  }, 
  {
    "city": "Ina", 
    "lat": "9.9833", 
    "lng": "2.7167", 
    "country": "Benin", 
    "iso2": "BJ", 
    "admin_name": "Borgou", 
    "capital": "", 
    "population": "16558", 
    "population_proper": "16558"
  }, 
  {
    "city": "Adjahomé", 
    "lat": "7.0618", 
    "lng": "1.8368", 
    "country": "Benin", 
    "iso2": "BJ", 
    "admin_name": "Couffo", 
    "capital": "", 
    "population": "16421", 
    "population_proper": "16421"
  }, 
  {
    "city": "Angara-Débou", 
    "lat": "11.3289", 
    "lng": "3.0406", 
    "country": "Benin", 
    "iso2": "BJ", 
    "admin_name": "Atacora", 
    "capital": "", 
    "population": "16369", 
    "population_proper": "16369"
  }, 
  {
    "city": "Garou", 
    "lat": "11.8053", 
    "lng": "3.4739", 
    "country": "Benin", 
    "iso2": "BJ", 
    "admin_name": "Atacora", 
    "capital": "", 
    "population": "16235", 
    "population_proper": "16235"
  }, 
  {
    "city": "Ségou", 
    "lat": "6.6167", 
    "lng": "2.2167", 
    "country": "Benin", 
    "iso2": "BJ", 
    "admin_name": "Atlantique", 
    "capital": "", 
    "population": "16124", 
    "population_proper": "16124"
  }, 
  {
    "city": "Banigbé", 
    "lat": "6.9000", 
    "lng": "2.6500", 
    "country": "Benin", 
    "iso2": "BJ", 
    "admin_name": "Plateau", 
    "capital": "", 
    "population": "16080", 
    "population_proper": "16080"
  }, 
  {
    "city": "Sérarou", 
    "lat": "9.5833", 
    "lng": "2.6500", 
    "country": "Benin", 
    "iso2": "BJ", 
    "admin_name": "Borgou", 
    "capital": "", 
    "population": "16060", 
    "population_proper": "16060"
  }, 
  {
    "city": "Dassari", 
    "lat": "10.8158", 
    "lng": "1.1406", 
    "country": "Benin", 
    "iso2": "BJ", 
    "admin_name": "Atacora", 
    "capital": "", 
    "population": "15839", 
    "population_proper": "15839"
  }, 
  {
    "city": "Toui", 
    "lat": "8.6833", 
    "lng": "2.6000", 
    "country": "Benin", 
    "iso2": "BJ", 
    "admin_name": "Collines", 
    "capital": "", 
    "population": "15634", 
    "population_proper": "15634"
  }, 
  {
    "city": "Bétérou", 
    "lat": "9.2000", 
    "lng": "2.2667", 
    "country": "Benin", 
    "iso2": "BJ", 
    "admin_name": "Borgou", 
    "capital": "", 
    "population": "15236", 
    "population_proper": "15236"
  }, 
  {
    "city": "Sakabansi", 
    "lat": "10.0442", 
    "lng": "3.3821", 
    "country": "Benin", 
    "iso2": "BJ", 
    "admin_name": "Borgou", 
    "capital": "", 
    "population": "15111", 
    "population_proper": "15111"
  }, 
  {
    "city": "Briniamaro", 
    "lat": "10.7411", 
    "lng": "2.0731", 
    "country": "Benin", 
    "iso2": "BJ", 
    "admin_name": "Atacora", 
    "capital": "", 
    "population": "14751", 
    "population_proper": "14751"
  }, 
  {
    "city": "Sinmpérékou", 
    "lat": "11.2333", 
    "lng": "2.4167", 
    "country": "Benin", 
    "iso2": "BJ", 
    "admin_name": "Alibori", 
    "capital": "", 
    "population": "14748", 
    "population_proper": "14748"
  }, 
  {
    "city": "Onklou", 
    "lat": "9.5000", 
    "lng": "1.9833", 
    "country": "Benin", 
    "iso2": "BJ", 
    "admin_name": "Donga", 
    "capital": "", 
    "population": "14693", 
    "population_proper": "14693"
  }, 
  {
    "city": "Dahé", 
    "lat": "6.5167", 
    "lng": "1.9500", 
    "country": "Benin", 
    "iso2": "BJ", 
    "admin_name": "Mono", 
    "capital": "", 
    "population": "14622", 
    "population_proper": "14622"
  }, 
  {
    "city": "Pahou", 
    "lat": "6.3833", 
    "lng": "2.2167", 
    "country": "Benin", 
    "iso2": "BJ", 
    "admin_name": "Atlantique", 
    "capital": "", 
    "population": "14436", 
    "population_proper": "14436"
  }, 
  {
    "city": "Ayomi", 
    "lat": "6.7833", 
    "lng": "1.7167", 
    "country": "Benin", 
    "iso2": "BJ", 
    "admin_name": "Couffo", 
    "capital": "", 
    "population": "14191", 
    "population_proper": "14191"
  }, 
  {
    "city": "Adakplamé", 
    "lat": "7.4500", 
    "lng": "2.5500", 
    "country": "Benin", 
    "iso2": "BJ", 
    "admin_name": "Plateau", 
    "capital": "", 
    "population": "14089", 
    "population_proper": "14089"
  }, 
  {
    "city": "Méridjonou", 
    "lat": "6.4619", 
    "lng": "2.6774", 
    "country": "Benin", 
    "iso2": "BJ", 
    "admin_name": "Ouémé", 
    "capital": "", 
    "population": "13959", 
    "population_proper": "13959"
  }, 
  {
    "city": "Gouka", 
    "lat": "8.1333", 
    "lng": "1.9667", 
    "country": "Benin", 
    "iso2": "BJ", 
    "admin_name": "Collines", 
    "capital": "", 
    "population": "13765", 
    "population_proper": "13765"
  }, 
  {
    "city": "Manta", 
    "lat": "10.3564", 
    "lng": "1.1056", 
    "country": "Benin", 
    "iso2": "BJ", 
    "admin_name": "Atacora", 
    "capital": "", 
    "population": "13633", 
    "population_proper": "13633"
  }, 
  {
    "city": "Doumé", 
    "lat": "8.0167", 
    "lng": "1.6333", 
    "country": "Benin", 
    "iso2": "BJ", 
    "admin_name": "Collines", 
    "capital": "", 
    "population": "13592", 
    "population_proper": "13592"
  }, 
  {
    "city": "Atomé-Avégamé", 
    "lat": "7.2333", 
    "lng": "1.6500", 
    "country": "Benin", 
    "iso2": "BJ", 
    "admin_name": "Couffo", 
    "capital": "", 
    "population": "13582", 
    "population_proper": "13582"
  }, 
  {
    "city": "Hévié", 
    "lat": "6.4167", 
    "lng": "2.2500", 
    "country": "Benin", 
    "iso2": "BJ", 
    "admin_name": "Atlantique", 
    "capital": "", 
    "population": "13450", 
    "population_proper": "13450"
  }, 
  {
    "city": "Toura", 
    "lat": "11.2436", 
    "lng": "2.3831", 
    "country": "Benin", 
    "iso2": "BJ", 
    "admin_name": "Alibori", 
    "capital": "", 
    "population": "13110", 
    "population_proper": "13110"
  }, 
  {
    "city": "Gouandé", 
    "lat": "10.7828", 
    "lng": "0.9186", 
    "country": "Benin", 
    "iso2": "BJ", 
    "admin_name": "Atacora", 
    "capital": "", 
    "population": "13071", 
    "population_proper": "13071"
  }, 
  {
    "city": "Gomparou", 
    "lat": "11.3000", 
    "lng": "2.4489", 
    "country": "Benin", 
    "iso2": "BJ", 
    "admin_name": "Alibori", 
    "capital": "", 
    "population": "12934", 
    "population_proper": "12934"
  }, 
  {
    "city": "Donwari", 
    "lat": "11.1197", 
    "lng": "2.8558", 
    "country": "Benin", 
    "iso2": "BJ", 
    "admin_name": "Alibori", 
    "capital": "", 
    "population": "12773", 
    "population_proper": "12773"
  }, 
  {
    "city": "Kouti", 
    "lat": "6.5542", 
    "lng": "2.6616", 
    "country": "Benin", 
    "iso2": "BJ", 
    "admin_name": "Plateau", 
    "capital": "", 
    "population": "12751", 
    "population_proper": "12751"
  }, 
  {
    "city": "Birni", 
    "lat": "9.9892", 
    "lng": "1.5269", 
    "country": "Benin", 
    "iso2": "BJ", 
    "admin_name": "Atacora", 
    "capital": "", 
    "population": "12559", 
    "population_proper": "12559"
  }, 
  {
    "city": "Siki", 
    "lat": "10.1833", 
    "lng": "2.3833", 
    "country": "Benin", 
    "iso2": "BJ", 
    "admin_name": "Borgou", 
    "capital": "", 
    "population": "12398", 
    "population_proper": "12398"
  }, 
  {
    "city": "Kika", 
    "lat": "9.3000", 
    "lng": "2.2667", 
    "country": "Benin", 
    "iso2": "BJ", 
    "admin_name": "Borgou", 
    "capital": "", 
    "population": "12398", 
    "population_proper": "12398"
  }, 
  {
    "city": "Pira", 
    "lat": "8.5000", 
    "lng": "1.7333", 
    "country": "Benin", 
    "iso2": "BJ", 
    "admin_name": "Collines", 
    "capital": "", 
    "population": "12377", 
    "population_proper": "12377"
  }, 
  {
    "city": "Soklogbo", 
    "lat": "7.6937", 
    "lng": "2.2673", 
    "country": "Benin", 
    "iso2": "BJ", 
    "admin_name": "Collines", 
    "capital": "", 
    "population": "12278", 
    "population_proper": "12278"
  }, 
  {
    "city": "Godohou", 
    "lat": "7.0333", 
    "lng": "1.7833", 
    "country": "Benin", 
    "iso2": "BJ", 
    "admin_name": "Couffo", 
    "capital": "", 
    "population": "12259", 
    "population_proper": "12259"
  }, 
  {
    "city": "Ouénou", 
    "lat": "9.7870", 
    "lng": "2.6375", 
    "country": "Benin", 
    "iso2": "BJ", 
    "admin_name": "Borgou", 
    "capital": "", 
    "population": "12245", 
    "population_proper": "12245"
  }, 
  {
    "city": "Katagon", 
    "lat": "6.6333", 
    "lng": "2.5833", 
    "country": "Benin", 
    "iso2": "BJ", 
    "admin_name": "Ouémé", 
    "capital": "", 
    "population": "12173", 
    "population_proper": "12173"
  }, 
  {
    "city": "Sagon", 
    "lat": "7.1500", 
    "lng": "2.4167", 
    "country": "Benin", 
    "iso2": "BJ", 
    "admin_name": "Zou", 
    "capital": "", 
    "population": "12160", 
    "population_proper": "12160"
  }, 
  {
    "city": "Gbanhi", 
    "lat": "8.4497", 
    "lng": "2.4737", 
    "country": "Benin", 
    "iso2": "BJ", 
    "admin_name": "Collines", 
    "capital": "", 
    "population": "12045", 
    "population_proper": "12045"
  }, 
  {
    "city": "Sam", 
    "lat": "11.0333", 
    "lng": "2.7333", 
    "country": "Benin", 
    "iso2": "BJ", 
    "admin_name": "Alibori", 
    "capital": "", 
    "population": "12006", 
    "population_proper": "12006"
  }, 
  {
    "city": "Sokouhoué", 
    "lat": "6.9000", 
    "lng": "1.6667", 
    "country": "Benin", 
    "iso2": "BJ", 
    "admin_name": "Couffo", 
    "capital": "", 
    "population": "11998", 
    "population_proper": "11998"
  }, 
  {
    "city": "Kountouri", 
    "lat": "10.4050", 
    "lng": "0.9425", 
    "country": "Benin", 
    "iso2": "BJ", 
    "admin_name": "Atacora", 
    "capital": "", 
    "population": "11958", 
    "population_proper": "11958"
  }, 
  {
    "city": "Tori-Cada", 
    "lat": "6.5833", 
    "lng": "2.2000", 
    "country": "Benin", 
    "iso2": "BJ", 
    "admin_name": "Atlantique", 
    "capital": "", 
    "population": "11952", 
    "population_proper": "11952"
  }, 
  {
    "city": "Coussé", 
    "lat": "6.8500", 
    "lng": "2.1333", 
    "country": "Benin", 
    "iso2": "BJ", 
    "admin_name": "Atlantique", 
    "capital": "", 
    "population": "11885", 
    "population_proper": "11885"
  }, 
  {
    "city": "Lissegazoun", 
    "lat": "6.6167", 
    "lng": "2.0833", 
    "country": "Benin", 
    "iso2": "BJ", 
    "admin_name": "Atlantique", 
    "capital": "", 
    "population": "11856", 
    "population_proper": "11856"
  }, 
  {
    "city": "Gbéroubouè", 
    "lat": "10.5333", 
    "lng": "2.7333", 
    "country": "Benin", 
    "iso2": "BJ", 
    "admin_name": "Borgou", 
    "capital": "", 
    "population": "11846", 
    "population_proper": "11846"
  }, 
  {
    "city": "Péonga", 
    "lat": "10.3333", 
    "lng": "3.2667", 
    "country": "Benin", 
    "iso2": "BJ", 
    "admin_name": "Borgou", 
    "capital": "", 
    "population": "11843", 
    "population_proper": "11843"
  }, 
  {
    "city": "Dérassi", 
    "lat": "10.1667", 
    "lng": "3.2667", 
    "country": "Benin", 
    "iso2": "BJ", 
    "admin_name": "Borgou", 
    "capital": "", 
    "population": "11630", 
    "population_proper": "11630"
  }, 
  {
    "city": "Kaboua", 
    "lat": "8.2500", 
    "lng": "2.6833", 
    "country": "Benin", 
    "iso2": "BJ", 
    "admin_name": "Collines", 
    "capital": "", 
    "population": "11500", 
    "population_proper": "11500"
  }, 
  {
    "city": "Agamé", 
    "lat": "6.7333", 
    "lng": "1.7667", 
    "country": "Benin", 
    "iso2": "BJ", 
    "admin_name": "Couffo", 
    "capital": "", 
    "population": "11465", 
    "population_proper": "11465"
  }, 
  {
    "city": "Guinagourou", 
    "lat": "9.5667", 
    "lng": "2.9500", 
    "country": "Benin", 
    "iso2": "BJ", 
    "admin_name": "Borgou", 
    "capital": "", 
    "population": "11411", 
    "population_proper": "11411"
  }, 
  {
    "city": "Niémasson", 
    "lat": "10.3078", 
    "lng": "2.0378", 
    "country": "Benin", 
    "iso2": "BJ", 
    "admin_name": "Atacora", 
    "capital": "", 
    "population": "11069", 
    "population_proper": "11069"
  }, 
  {
    "city": "Sérékali", 
    "lat": "9.9186", 
    "lng": "3.0434", 
    "country": "Benin", 
    "iso2": "BJ", 
    "admin_name": "Borgou", 
    "capital": "", 
    "population": "10818", 
    "population_proper": "10818"
  }, 
  {
    "city": "Sanson", 
    "lat": "9.2833", 
    "lng": "2.4333", 
    "country": "Benin", 
    "iso2": "BJ", 
    "admin_name": "Borgou", 
    "capital": "", 
    "population": "10784", 
    "population_proper": "10784"
  }, 
  {
    "city": "Gounarou", 
    "lat": "10.8667", 
    "lng": "2.8500", 
    "country": "Benin", 
    "iso2": "BJ", 
    "admin_name": "Alibori", 
    "capital": "", 
    "population": "10767", 
    "population_proper": "10767"
  }, 
  {
    "city": "Agouna", 
    "lat": "7.5667", 
    "lng": "1.7000", 
    "country": "Benin", 
    "iso2": "BJ", 
    "admin_name": "Zou", 
    "capital": "", 
    "population": "10763", 
    "population_proper": "10763"
  }, 
  {
    "city": "Fô-Bouré", 
    "lat": "10.1167", 
    "lng": "2.4000", 
    "country": "Benin", 
    "iso2": "BJ", 
    "admin_name": "Borgou", 
    "capital": "", 
    "population": "10677", 
    "population_proper": "10677"
  }, 
  {
    "city": "Adohoun", 
    "lat": "6.6333", 
    "lng": "1.6667", 
    "country": "Benin", 
    "iso2": "BJ", 
    "admin_name": "Mono", 
    "capital": "", 
    "population": "10622", 
    "population_proper": "10622"
  }, 
  {
    "city": "Kilibo", 
    "lat": "8.5717", 
    "lng": "2.6017", 
    "country": "Benin", 
    "iso2": "BJ", 
    "admin_name": "Collines", 
    "capital": "", 
    "population": "10616", 
    "population_proper": "10616"
  }, 
  {
    "city": "Ouédo-Aguéko", 
    "lat": "6.4963", 
    "lng": "2.4268", 
    "country": "Benin", 
    "iso2": "BJ", 
    "admin_name": "Atlantique", 
    "capital": "", 
    "population": "10610", 
    "population_proper": "10610"
  }, 
  {
    "city": "Yoko", 
    "lat": "6.7000", 
    "lng": "2.6167", 
    "country": "Benin", 
    "iso2": "BJ", 
    "admin_name": "Plateau", 
    "capital": "", 
    "population": "10543", 
    "population_proper": "10543"
  }, 
  {
    "city": "Lonkly", 
    "lat": "7.1333", 
    "lng": "1.6833", 
    "country": "Benin", 
    "iso2": "BJ", 
    "admin_name": "Couffo", 
    "capital": "", 
    "population": "10445", 
    "population_proper": "10445"
  }, 
  {
    "city": "Takon", 
    "lat": "6.6500", 
    "lng": "2.6167", 
    "country": "Benin", 
    "iso2": "BJ", 
    "admin_name": "Plateau", 
    "capital": "", 
    "population": "10424", 
    "population_proper": "10424"
  }, 
  {
    "city": "Dougba", 
    "lat": "8.4497", 
    "lng": "2.4737", 
    "country": "Benin", 
    "iso2": "BJ", 
    "admin_name": "Collines", 
    "capital": "", 
    "population": "10387", 
    "population_proper": "10387"
  }, 
  {
    "city": "Libanté", 
    "lat": "10.7936", 
    "lng": "3.5828", 
    "country": "Benin", 
    "iso2": "BJ", 
    "admin_name": "Alibori", 
    "capital": "", 
    "population": "10365", 
    "population_proper": "10365"
  }, 
  {
    "city": "Dan", 
    "lat": "7.3167", 
    "lng": "2.0667", 
    "country": "Benin", 
    "iso2": "BJ", 
    "admin_name": "Zou", 
    "capital": "", 
    "population": "10356", 
    "population_proper": "10356"
  }, 
  {
    "city": "Firou", 
    "lat": "10.9192", 
    "lng": "1.9386", 
    "country": "Benin", 
    "iso2": "BJ", 
    "admin_name": "Atacora", 
    "capital": "", 
    "population": "10331", 
    "population_proper": "10331"
  }, 
  {
    "city": "Ahogbeya", 
    "lat": "7.0333", 
    "lng": "1.9167", 
    "country": "Benin", 
    "iso2": "BJ", 
    "admin_name": "Couffo", 
    "capital": "", 
    "population": "10330", 
    "population_proper": "10330"
  }, 
  {
    "city": "Ganvié", 
    "lat": "6.4667", 
    "lng": "2.4167", 
    "country": "Benin", 
    "iso2": "BJ", 
    "admin_name": "Atlantique", 
    "capital": "", 
    "population": "10280", 
    "population_proper": "10280"
  }, 
  {
    "city": "Pabégou", 
    "lat": "9.8333", 
    "lng": "1.5492", 
    "country": "Benin", 
    "iso2": "BJ", 
    "admin_name": "Donga", 
    "capital": "", 
    "population": "10156", 
    "population_proper": "10156"
  }, 
  {
    "city": "Hozin", 
    "lat": "6.5333", 
    "lng": "2.5500", 
    "country": "Benin", 
    "iso2": "BJ", 
    "admin_name": "Ouémé", 
    "capital": "", 
    "population": "10076", 
    "population_proper": "10076"
  }, 
  {
    "city": "Ouédo", 
    "lat": "6.4833", 
    "lng": "2.4500", 
    "country": "Benin", 
    "iso2": "BJ", 
    "admin_name": "Atlantique", 
    "capital": "", 
    "population": "10067", 
    "population_proper": "10067"
  }, 
  {
    "city": "Massi", 
    "lat": "9.9167", 
    "lng": "1.4667", 
    "country": "Benin", 
    "iso2": "BJ", 
    "admin_name": "Donga", 
    "capital": "", 
    "population": "10030", 
    "population_proper": "10030"
  }, 
  {
    "city": "Tomboutou", 
    "lat": "11.8550", 
    "lng": "3.2892", 
    "country": "Benin", 
    "iso2": "BJ", 
    "admin_name": "Atacora", 
    "capital": "", 
    "population": "10026", 
    "population_proper": "10026"
  }, 
  {
    "city": "Kouarfa", 
    "lat": "10.4833", 
    "lng": "1.5167", 
    "country": "Benin", 
    "iso2": "BJ", 
    "admin_name": "Atacora", 
    "capital": "", 
    "population": "9809", 
    "population_proper": "9809"
  }, 
  {
    "city": "Agatogba", 
    "lat": "6.4000", 
    "lng": "1.9000", 
    "country": "Benin", 
    "iso2": "BJ", 
    "admin_name": "Mono", 
    "capital": "", 
    "population": "9758", 
    "population_proper": "9758"
  }, 
  {
    "city": "Zoudjamé", 
    "lat": "6.8167", 
    "lng": "1.8667", 
    "country": "Benin", 
    "iso2": "BJ", 
    "admin_name": "Couffo", 
    "capital": "", 
    "population": "9673", 
    "population_proper": "9673"
  }, 
  {
    "city": "Dasso", 
    "lat": "7.0167", 
    "lng": "2.4667", 
    "country": "Benin", 
    "iso2": "BJ", 
    "admin_name": "Zou", 
    "capital": "", 
    "population": "9607", 
    "population_proper": "9607"
  }, 
  {
    "city": "Agoué", 
    "lat": "6.2500", 
    "lng": "1.6833", 
    "country": "Benin", 
    "iso2": "BJ", 
    "admin_name": "Mono", 
    "capital": "", 
    "population": "9589", 
    "population_proper": "9589"
  }, 
  {
    "city": "Dagbé", 
    "lat": "6.5667", 
    "lng": "2.6833", 
    "country": "Benin", 
    "iso2": "BJ", 
    "admin_name": "Ouémé", 
    "capital": "", 
    "population": "9498", 
    "population_proper": "9498"
  }, 
  {
    "city": "Lagbé", 
    "lat": "6.6833", 
    "lng": "2.6833", 
    "country": "Benin", 
    "iso2": "BJ", 
    "admin_name": "Plateau", 
    "capital": "", 
    "population": "9138", 
    "population_proper": "9138"
  }, 
  {
    "city": "Lanta", 
    "lat": "7.1000", 
    "lng": "1.8667", 
    "country": "Benin", 
    "iso2": "BJ", 
    "admin_name": "Couffo", 
    "capital": "", 
    "population": "9129", 
    "population_proper": "9129"
  }, 
  {
    "city": "Dodji-Bata", 
    "lat": "6.6833", 
    "lng": "2.2833", 
    "country": "Benin", 
    "iso2": "BJ", 
    "admin_name": "Atlantique", 
    "capital": "", 
    "population": "9119", 
    "population_proper": "9119"
  }, 
  {
    "city": "Ouédémè", 
    "lat": "6.7000", 
    "lng": "1.6833", 
    "country": "Benin", 
    "iso2": "BJ", 
    "admin_name": "Couffo", 
    "capital": "", 
    "population": "9099", 
    "population_proper": "9099"
  }, 
  {
    "city": "Adjido", 
    "lat": "7.0333", 
    "lng": "1.9833", 
    "country": "Benin", 
    "iso2": "BJ", 
    "admin_name": "Zou", 
    "capital": "", 
    "population": "9064", 
    "population_proper": "9064"
  }, 
  {
    "city": "Igana", 
    "lat": "7.0333", 
    "lng": "2.7000", 
    "country": "Benin", 
    "iso2": "BJ", 
    "admin_name": "Plateau", 
    "capital": "", 
    "population": "8735", 
    "population_proper": "8735"
  }, 
  {
    "city": "Ouando", 
    "lat": "6.5542", 
    "lng": "2.6616", 
    "country": "Benin", 
    "iso2": "BJ", 
    "admin_name": "Ouémé", 
    "capital": "", 
    "population": "8712", 
    "population_proper": "8712"
  }, 
  {
    "city": "Avabodji", 
    "lat": "6.4533", 
    "lng": "2.5275", 
    "country": "Benin", 
    "iso2": "BJ", 
    "admin_name": "Ouémé", 
    "capital": "", 
    "population": "8668", 
    "population_proper": "8668"
  }, 
  {
    "city": "Adjarra", 
    "lat": "6.5333", 
    "lng": "2.2667", 
    "country": "Benin", 
    "iso2": "BJ", 
    "admin_name": "Atlantique", 
    "capital": "", 
    "population": "8651", 
    "population_proper": "8651"
  }, 
  {
    "city": "Dékanmé", 
    "lat": "7.1333", 
    "lng": "1.9667", 
    "country": "Benin", 
    "iso2": "BJ", 
    "admin_name": "Zou", 
    "capital": "", 
    "population": "8581", 
    "population_proper": "8581"
  }, 
  {
    "city": "Locogahoué", 
    "lat": "6.8000", 
    "lng": "1.7830", 
    "country": "Benin", 
    "iso2": "BJ", 
    "admin_name": "Couffo", 
    "capital": "", 
    "population": "8567", 
    "population_proper": "8567"
  }, 
  {
    "city": "Sèmèrè", 
    "lat": "9.6268", 
    "lng": "1.4515", 
    "country": "Benin", 
    "iso2": "BJ", 
    "admin_name": "Donga", 
    "capital": "", 
    "population": "8566", 
    "population_proper": "8566"
  }, 
  {
    "city": "Sémé-Akiza", 
    "lat": "6.9667", 
    "lng": "2.0500", 
    "country": "Benin", 
    "iso2": "BJ", 
    "admin_name": "Zou", 
    "capital": "", 
    "population": "8477", 
    "population_proper": "8477"
  }, 
  {
    "city": "Agbodji", 
    "lat": "6.6500", 
    "lng": "1.9833", 
    "country": "Benin", 
    "iso2": "BJ", 
    "admin_name": "Mono", 
    "capital": "", 
    "population": "8376", 
    "population_proper": "8376"
  }, 
  {
    "city": "Ouassa", 
    "lat": "7.1867", 
    "lng": "2.1206", 
    "country": "Benin", 
    "iso2": "BJ", 
    "admin_name": "Zou", 
    "capital": "", 
    "population": "8350", 
    "population_proper": "8350"
  }, 
  {
    "city": "Zounké", 
    "lat": "6.6167", 
    "lng": "2.5333", 
    "country": "Benin", 
    "iso2": "BJ", 
    "admin_name": "Ouémé", 
    "capital": "", 
    "population": "8326", 
    "population_proper": "8326"
  }, 
  {
    "city": "Houédomé", 
    "lat": "6.4833", 
    "lng": "2.5500", 
    "country": "Benin", 
    "iso2": "BJ", 
    "admin_name": "Ouémé", 
    "capital": "", 
    "population": "8309", 
    "population_proper": "8309"
  }, 
  {
    "city": "Anandana", 
    "lat": "9.9500", 
    "lng": "1.3833", 
    "country": "Benin", 
    "iso2": "BJ", 
    "admin_name": "Donga", 
    "capital": "", 
    "population": "8266", 
    "population_proper": "8266"
  }, 
  {
    "city": "Tanvé", 
    "lat": "7.1333", 
    "lng": "1.9667", 
    "country": "Benin", 
    "iso2": "BJ", 
    "admin_name": "Zou", 
    "capital": "", 
    "population": "8034", 
    "population_proper": "8034"
  }, 
  {
    "city": "Okpomèta", 
    "lat": "7.4000", 
    "lng": "2.6500", 
    "country": "Benin", 
    "iso2": "BJ", 
    "admin_name": "Plateau", 
    "capital": "", 
    "population": "7822", 
    "population_proper": "7822"
  }, 
  {
    "city": "Badjoudè", 
    "lat": "9.7167", 
    "lng": "1.4167", 
    "country": "Benin", 
    "iso2": "BJ", 
    "admin_name": "Donga", 
    "capital": "", 
    "population": "7658", 
    "population_proper": "7658"
  }, 
  {
    "city": "Kpénou", 
    "lat": "6.5997", 
    "lng": "1.7408", 
    "country": "Benin", 
    "iso2": "BJ", 
    "admin_name": "Mono", 
    "capital": "", 
    "population": "7630", 
    "population_proper": "7630"
  }, 
  {
    "city": "Boni", 
    "lat": "9.2833", 
    "lng": "2.7333", 
    "country": "Benin", 
    "iso2": "BJ", 
    "admin_name": "Borgou", 
    "capital": "", 
    "population": "7609", 
    "population_proper": "7609"
  }, 
  {
    "city": "Gourou", 
    "lat": "9.9370", 
    "lng": "3.2089", 
    "country": "Benin", 
    "iso2": "BJ", 
    "admin_name": "Borgou", 
    "capital": "", 
    "population": "7608", 
    "population_proper": "7608"
  }, 
  {
    "city": "Koyohoué", 
    "lat": "6.8582", 
    "lng": "1.6841", 
    "country": "Benin", 
    "iso2": "BJ", 
    "admin_name": "Couffo", 
    "capital": "", 
    "population": "7590", 
    "population_proper": "7590"
  }, 
  {
    "city": "Oungo", 
    "lat": "6.8500", 
    "lng": "2.0833", 
    "country": "Benin", 
    "iso2": "BJ", 
    "admin_name": "Couffo", 
    "capital": "", 
    "population": "7563", 
    "population_proper": "7563"
  }, 
  {
    "city": "Affamè", 
    "lat": "6.8167", 
    "lng": "2.4667", 
    "country": "Benin", 
    "iso2": "BJ", 
    "admin_name": "Ouémé", 
    "capital": "", 
    "population": "7269", 
    "population_proper": "7269"
  }, 
  {
    "city": "Tchanou", 
    "lat": "6.5997", 
    "lng": "1.7408", 
    "country": "Benin", 
    "iso2": "BJ", 
    "admin_name": "Mono", 
    "capital": "", 
    "population": "7176", 
    "population_proper": "7176"
  }, 
  {
    "city": "Allahé", 
    "lat": "7.1667", 
    "lng": "2.2667", 
    "country": "Benin", 
    "iso2": "BJ", 
    "admin_name": "Zou", 
    "capital": "", 
    "population": "6903", 
    "population_proper": "6903"
  }, 
  {
    "city": "Dékin-Afio", 
    "lat": "6.5500", 
    "lng": "2.4500", 
    "country": "Benin", 
    "iso2": "BJ", 
    "admin_name": "Ouémé", 
    "capital": "", 
    "population": "6895", 
    "population_proper": "6895"
  }, 
  {
    "city": "Hondjin", 
    "lat": "7.0618", 
    "lng": "1.8368", 
    "country": "Benin", 
    "iso2": "BJ", 
    "admin_name": "Couffo", 
    "capital": "", 
    "population": "6873", 
    "population_proper": "6873"
  }, 
  {
    "city": "Chabi-Kouma", 
    "lat": "10.0000", 
    "lng": "1.4667", 
    "country": "Benin", 
    "iso2": "BJ", 
    "admin_name": "Atacora", 
    "capital": "", 
    "population": "6870", 
    "population_proper": "6870"
  }, 
  {
    "city": "Domé", 
    "lat": "7.1000", 
    "lng": "2.3000", 
    "country": "Benin", 
    "iso2": "BJ", 
    "admin_name": "Zou", 
    "capital": "", 
    "population": "6768", 
    "population_proper": "6768"
  }, 
  {
    "city": "Lissazoumé", 
    "lat": "7.0723", 
    "lng": "1.9660", 
    "country": "Benin", 
    "iso2": "BJ", 
    "admin_name": "Zou", 
    "capital": "", 
    "population": "6703", 
    "population_proper": "6703"
  }, 
  {
    "city": "Kpoba", 
    "lat": "6.8167", 
    "lng": "1.6333", 
    "country": "Benin", 
    "iso2": "BJ", 
    "admin_name": "Couffo", 
    "capital": "", 
    "population": "6539", 
    "population_proper": "6539"
  }, 
  {
    "city": "Agoukamè", 
    "lat": "6.3816", 
    "lng": "1.9935", 
    "country": "Benin", 
    "iso2": "BJ", 
    "admin_name": "Atlantique", 
    "capital": "", 
    "population": "6533", 
    "population_proper": "6533"
  }, 
  {
    "city": "Koundakpoé", 
    "lat": "6.7283", 
    "lng": "2.3187", 
    "country": "Benin", 
    "iso2": "BJ", 
    "admin_name": "Atlantique", 
    "capital": "", 
    "population": "6526", 
    "population_proper": "6526"
  }, 
  {
    "city": "Azohoué-Cada", 
    "lat": "6.5500", 
    "lng": "2.1000", 
    "country": "Benin", 
    "iso2": "BJ", 
    "admin_name": "Atlantique", 
    "capital": "", 
    "population": "6457", 
    "population_proper": "6457"
  }, 
  {
    "city": "Naogon", 
    "lat": "7.2333", 
    "lng": "2.3333", 
    "country": "Benin", 
    "iso2": "BJ", 
    "admin_name": "Zou", 
    "capital": "", 
    "population": "6434", 
    "population_proper": "6434"
  }, 
  {
    "city": "Houin", 
    "lat": "6.6300", 
    "lng": "1.7160", 
    "country": "Benin", 
    "iso2": "BJ", 
    "admin_name": "Mono", 
    "capital": "", 
    "population": "6362", 
    "population_proper": "6362"
  }, 
  {
    "city": "Attogon", 
    "lat": "6.7167", 
    "lng": "2.1500", 
    "country": "Benin", 
    "iso2": "BJ", 
    "admin_name": "Atlantique", 
    "capital": "", 
    "population": "6230", 
    "population_proper": "6230"
  }, 
  {
    "city": "Akpotonou", 
    "lat": "6.7667", 
    "lng": "2.4833", 
    "country": "Benin", 
    "iso2": "BJ", 
    "admin_name": "Ouémé", 
    "capital": "", 
    "population": "6158", 
    "population_proper": "6158"
  }, 
  {
    "city": "Houton", 
    "lat": "6.8000", 
    "lng": "1.7830", 
    "country": "Benin", 
    "iso2": "BJ", 
    "admin_name": "Couffo", 
    "capital": "", 
    "population": "5814", 
    "population_proper": "5814"
  }, 
  {
    "city": "Adjaha", 
    "lat": "6.3167", 
    "lng": "1.8333", 
    "country": "Benin", 
    "iso2": "BJ", 
    "admin_name": "Mono", 
    "capital": "", 
    "population": "5787", 
    "population_proper": "5787"
  }, 
  {
    "city": "Sahé", 
    "lat": "7.0500", 
    "lng": "1.9167", 
    "country": "Benin", 
    "iso2": "BJ", 
    "admin_name": "Couffo", 
    "capital": "", 
    "population": "5730", 
    "population_proper": "5730"
  }, 
  {
    "city": "Avlékété", 
    "lat": "6.3500", 
    "lng": "2.2000", 
    "country": "Benin", 
    "iso2": "BJ", 
    "admin_name": "Atlantique", 
    "capital": "", 
    "population": "5636", 
    "population_proper": "5636"
  }, 
  {
    "city": "Adjian", 
    "lat": "6.7283", 
    "lng": "2.3187", 
    "country": "Benin", 
    "iso2": "BJ", 
    "admin_name": "Atlantique", 
    "capital": "", 
    "population": "5606", 
    "population_proper": "5606"
  }, 
  {
    "city": "Ayou", 
    "lat": "6.7167", 
    "lng": "2.1167", 
    "country": "Benin", 
    "iso2": "BJ", 
    "admin_name": "Atlantique", 
    "capital": "", 
    "population": "5541", 
    "population_proper": "5541"
  }, 
  {
    "city": "Gbakpodji", 
    "lat": "6.6667", 
    "lng": "1.8667", 
    "country": "Benin", 
    "iso2": "BJ", 
    "admin_name": "Mono", 
    "capital": "", 
    "population": "5509", 
    "population_proper": "5509"
  }, 
  {
    "city": "Komtè", 
    "lat": "9.6268", 
    "lng": "1.4515", 
    "country": "Benin", 
    "iso2": "BJ", 
    "admin_name": "Donga", 
    "capital": "", 
    "population": "5472", 
    "population_proper": "5472"
  }, 
  {
    "city": "Kpomé", 
    "lat": "6.9500", 
    "lng": "2.3000", 
    "country": "Benin", 
    "iso2": "BJ", 
    "admin_name": "Zou", 
    "capital": "", 
    "population": "5254", 
    "population_proper": "5254"
  }, 
  {
    "city": "Ayahohoué", 
    "lat": "7.0618", 
    "lng": "1.8368", 
    "country": "Benin", 
    "iso2": "BJ", 
    "admin_name": "Couffo", 
    "capital": "", 
    "population": "5251", 
    "population_proper": "5251"
  }, 
  {
    "city": "Kinkinhoué", 
    "lat": "6.9167", 
    "lng": "1.7167", 
    "country": "Benin", 
    "iso2": "BJ", 
    "admin_name": "Couffo", 
    "capital": "", 
    "population": "4988", 
    "population_proper": "4988"
  }, 
  {
    "city": "Djanglamé", 
    "lat": "6.4000", 
    "lng": "1.8167", 
    "country": "Benin", 
    "iso2": "BJ", 
    "admin_name": "Mono", 
    "capital": "", 
    "population": "4852", 
    "population_proper": "4852"
  }, 
  {
    "city": "Kouzounkpa", 
    "lat": "7.0163", 
    "lng": "2.1911", 
    "country": "Benin", 
    "iso2": "BJ", 
    "admin_name": "Zou", 
    "capital": "", 
    "population": "4810", 
    "population_proper": "4810"
  }, 
  {
    "city": "Gakpé", 
    "lat": "6.4167", 
    "lng": "2.1333", 
    "country": "Benin", 
    "iso2": "BJ", 
    "admin_name": "Atlantique", 
    "capital": "", 
    "population": "4776", 
    "population_proper": "4776"
  }, 
  {
    "city": "Cana", 
    "lat": "7.1669", 
    "lng": "2.0669", 
    "country": "Benin", 
    "iso2": "BJ", 
    "admin_name": "Zou", 
    "capital": "", 
    "population": "4648", 
    "population_proper": "4648"
  }, 
  {
    "city": "Ounhoué", 
    "lat": "6.5281", 
    "lng": "1.8650", 
    "country": "Benin", 
    "iso2": "BJ", 
    "admin_name": "Mono", 
    "capital": "", 
    "population": "4648", 
    "population_proper": "4648"
  }, 
  {
    "city": "Kinta", 
    "lat": "7.0723", 
    "lng": "1.9660", 
    "country": "Benin", 
    "iso2": "BJ", 
    "admin_name": "Zou", 
    "capital": "", 
    "population": "4626", 
    "population_proper": "4626"
  }, 
  {
    "city": "Gbehoué", 
    "lat": "6.3488", 
    "lng": "1.8065", 
    "country": "Benin", 
    "iso2": "BJ", 
    "admin_name": "Mono", 
    "capital": "", 
    "population": "4453", 
    "population_proper": "4453"
  }, 
  {
    "city": "Avamé", 
    "lat": "6.5000", 
    "lng": "2.2167", 
    "country": "Benin", 
    "iso2": "BJ", 
    "admin_name": "Atlantique", 
    "capital": "", 
    "population": "4444", 
    "population_proper": "4444"
  }, 
  {
    "city": "Détohou", 
    "lat": "7.1833", 
    "lng": "1.9500", 
    "country": "Benin", 
    "iso2": "BJ", 
    "admin_name": "Zou", 
    "capital": "", 
    "population": "4112", 
    "population_proper": "4112"
  }, 
  {
    "city": "Togodo", 
    "lat": "6.6500", 
    "lng": "2.1667", 
    "country": "Benin", 
    "iso2": "BJ", 
    "admin_name": "Atlantique", 
    "capital": "", 
    "population": "4059", 
    "population_proper": "4059"
  }, 
  {
    "city": "Avakpa", 
    "lat": "6.6500", 
    "lng": "2.0500", 
    "country": "Benin", 
    "iso2": "BJ", 
    "admin_name": "Atlantique", 
    "capital": "", 
    "population": "3987", 
    "population_proper": "3987"
  }, 
  {
    "city": "Tchito", 
    "lat": "6.9333", 
    "lng": "2.0667", 
    "country": "Benin", 
    "iso2": "BJ", 
    "admin_name": "Zou", 
    "capital": "", 
    "population": "3888", 
    "population_proper": "3888"
  }, 
  {
    "city": "Djigbé", 
    "lat": "6.8333", 
    "lng": "2.3833", 
    "country": "Benin", 
    "iso2": "BJ", 
    "admin_name": "Atlantique", 
    "capital": "", 
    "population": "3671", 
    "population_proper": "3671"
  }, 
  {
    "city": "Hinvi", 
    "lat": "6.7667", 
    "lng": "2.1667", 
    "country": "Benin", 
    "iso2": "BJ", 
    "admin_name": "Atlantique", 
    "capital": "", 
    "population": "3604", 
    "population_proper": "3604"
  }, 
  {
    "city": "Oumako", 
    "lat": "6.4333", 
    "lng": "1.8333", 
    "country": "Benin", 
    "iso2": "BJ", 
    "admin_name": "Mono", 
    "capital": "", 
    "population": "3576", 
    "population_proper": "3576"
  }, 
  {
    "city": "Ahomadégbé", 
    "lat": "6.8333", 
    "lng": "2.0000", 
    "country": "Benin", 
    "iso2": "BJ", 
    "admin_name": "Couffo", 
    "capital": "", 
    "population": "3556", 
    "population_proper": "3556"
  }, 
  {
    "city": "Long-Agomey", 
    "lat": "6.7333", 
    "lng": "2.0500", 
    "country": "Benin", 
    "iso2": "BJ", 
    "admin_name": "Atlantique", 
    "capital": "", 
    "population": "3492", 
    "population_proper": "3492"
  }, 
  {
    "city": "Sazué", 
    "lat": "6.3488", 
    "lng": "1.8065", 
    "country": "Benin", 
    "iso2": "BJ", 
    "admin_name": "Mono", 
    "capital": "", 
    "population": "3422", 
    "population_proper": "3422"
  }, 
  {
    "city": "Avlo", 
    "lat": "6.2930", 
    "lng": "1.8954", 
    "country": "Benin", 
    "iso2": "BJ", 
    "admin_name": "Mono", 
    "capital": "", 
    "population": "3416", 
    "population_proper": "3416"
  }, 
  {
    "city": "Tchalinga", 
    "lat": "9.8167", 
    "lng": "1.3833", 
    "country": "Benin", 
    "iso2": "BJ", 
    "admin_name": "Donga", 
    "capital": "", 
    "population": "3327", 
    "population_proper": "3327"
  }, 
  {
    "city": "Zoungoudo", 
    "lat": "7.0167", 
    "lng": "1.9833", 
    "country": "Benin", 
    "iso2": "BJ", 
    "admin_name": "Zou", 
    "capital": "", 
    "population": "2135", 
    "population_proper": "2135"
  }, 
  {
    "city": "Dogbo", 
    "lat": "6.8167", 
    "lng": "1.7833", 
    "country": "Benin", 
    "iso2": "BJ", 
    "admin_name": "Couffo", 
    "capital": "admin", 
    "population": "", 
    "population_proper": ""
  }
]